[
  {
    "id": "chile",
    "country_name": "Chile",
    "slug": "chile",
    "lat": -35.6751,
    "lng": -71.543,
    "sovereign_flag": true,
    "market_segment": "Sovereign",
    "deal_count": 3,
    "total_volume_usd": 950000000,
    "main_peril": "Chile earthquake",
    "latest_issue_year": 2024,
    "tooltip_title": "Chile",
    "tooltip_text": "3 deal(s) | Sovereign | Latest: 2024",
    "destination_url": "/countries/chile"
  },
  {
    "id": "colombia",
    "country_name": "Colombia",
    "slug": "colombia",
    "lat": 4.5709,
    "lng": -74.2973,
    "sovereign_flag": true,
    "market_segment": "Sovereign",
    "deal_count": 1,
    "total_volume_usd": 400000000,
    "main_peril": "Colombia earthquake",
    "latest_issue_year": 2018,
    "tooltip_title": "Colombia",
    "tooltip_text": "1 deal(s) | Sovereign | Latest: 2018",
    "destination_url": "/countries/colombia"
  },
  {
    "id": "israel",
    "country_name": "Israel",
    "slug": "israel",
    "lat": 31.0461,
    "lng": 34.8516,
    "sovereign_flag": false,
    "market_segment": "Non-Sovereign / Corporate",
    "deal_count": 1,
    "total_volume_usd": 100000000,
    "main_peril": "Israel earthquake",
    "latest_issue_year": 2025,
    "tooltip_title": "Israel",
    "tooltip_text": "1 deal(s) | Non-Sovereign / Corporate | Latest: 2025",
    "destination_url": "/countries/israel"
  },
  {
    "id": "jamaica",
    "country_name": "Jamaica",
    "slug": "jamaica",
    "lat": 18.1096,
    "lng": -77.2975,
    "sovereign_flag": true,
    "market_segment": "Sovereign",
    "deal_count": 2,
    "total_volume_usd": 335000000,
    "main_peril": "Jamaica named storms",
    "latest_issue_year": 2024,
    "tooltip_title": "Jamaica",
    "tooltip_text": "2 deal(s) | Sovereign | Latest: 2024",
    "destination_url": "/countries/jamaica"
  },
  {
    "id": "mexico",
    "country_name": "Mexico",
    "slug": "mexico",
    "lat": 23.6345,
    "lng": -102.5528,
    "sovereign_flag": true,
    "market_segment": "Sovereign",
    "deal_count": 14,
    "total_volume_usd": 1655000000,
    "main_peril": "Mexico earthquake",
    "latest_issue_year": 2024,
    "tooltip_title": "Mexico",
    "tooltip_text": "14 deal(s) | Sovereign | Latest: 2024",
    "destination_url": "/countries/mexico"
  },
  {
    "id": "peru",
    "country_name": "Peru",
    "slug": "peru",
    "lat": -9.19,
    "lng": -75.0152,
    "sovereign_flag": true,
    "market_segment": "Sovereign",
    "deal_count": 2,
    "total_volume_usd": 300000000,
    "main_peril": "Peru earthquake",
    "latest_issue_year": 2024,
    "tooltip_title": "Peru",
    "tooltip_text": "2 deal(s) | Sovereign | Latest: 2024",
    "destination_url": "/countries/peru"
  },
  {
    "id": "philippines",
    "country_name": "Philippines",
    "slug": "philippines",
    "lat": 12.8797,
    "lng": 121.774,
    "sovereign_flag": true,
    "market_segment": "Sovereign",
    "deal_count": 2,
    "total_volume_usd": 225000000,
    "main_peril": "Philippine earthquakes; tropical cyclones",
    "latest_issue_year": 2019,
    "tooltip_title": "Philippines",
    "tooltip_text": "2 deal(s) | Sovereign | Latest: 2019",
    "destination_url": "/countries/philippines"
  }
]
